City_ID,City,Lat,Lng,Max Temp,Humidity,Cloudiness,Wind Speed,Country,Date
0,walvis bay,-22.9575,14.5053,27.53,47,0,4.63,NA,1704195996
1,olonkinbyen,70.9221,-8.7187,0.22,97,100,3.65,SJ,1704195997
2,bethel,41.3712,-73.414,-2.95,75,0,1.54,US,1704195807
3,saint-francois,46.4154,3.9054,10.69,68,100,5.66,FR,1704195997
4,grytviken,-54.2811,-36.5092,1.73,66,93,1.29,GS,1704195997
5,port elizabeth,-33.918,25.5701,29.5,78,20,9.26,ZA,1704195913
6,sandnessjoen,66.0217,12.6316,-5.88,23,0,2.57,NO,1704195998
7,tokar,18.4254,37.729,26.63,61,96,5.81,SD,1704195998
8,laojunmiao,39.8333,97.7333,-3.5,26,1,1.11,CN,1704195998
9,albany,42.6001,-73.9662,-1.44,78,10,2.98,US,1704195998
10,dudinka,69.4058,86.1778,-30.77,98,59,2.24,RU,1704195998
11,klyuchi,52.2667,79.1667,-1.21,96,100,6.85,RU,1704195999
12,waitangi,-43.9535,-176.5597,13.79,88,98,4.02,NZ,1704195999
13,puerto natales,-51.7236,-72.4875,16.25,48,75,8.75,CL,1704195999
14,tolanaro,-25.0319,46.9987,26.04,89,75,8.23,MG,1704195999
15,colonia,50.9333,6.95,11.87,82,20,7.2,DE,1704196000
16,puerto baquerizo moreno,-0.9,-89.6,24.32,89,6,3.28,EC,1704196000
17,ulladulla,-35.35,150.4667,19.75,94,99,3.09,AU,1704196000
18,invercargill,-46.4,168.35,12.79,86,69,3.58,NZ,1704196000
19,punta del este,-34.9667,-54.95,23.06,81,75,4.63,UY,1704196001
20,afaahiti,-17.75,-149.2833,25.93,81,100,3.65,PF,1704196001
21,jamestown,42.097,-79.2353,0.77,95,100,3.6,US,1704195740
22,thunder bay,48.4001,-89.3168,-2.01,80,100,4.12,CA,1704195723
23,mitu,1.1983,-70.1733,23.88,97,99,0.76,CO,1704196001
24,da nang,16.0678,108.2208,22.99,94,75,0.0,VN,1704195873
25,bredasdorp,-34.5322,20.0403,25.41,61,80,6.64,ZA,1704196002
26,punta cana,18.5818,-68.4043,22.87,100,75,3.09,DO,1704195457
27,port alfred,-33.5906,26.891,21.21,83,87,3.58,ZA,1704196002
28,port-aux-francais,-49.35,70.2167,4.77,93,92,16.89,TF,1704196002
29,iqaluit,63.7506,-68.5145,-25.15,57,20,5.66,CA,1704196002
30,isafjordur,66.0755,-23.124,6.02,70,75,5.14,IS,1704196003
31,sitka,57.0531,-135.33,6.94,57,100,6.17,US,1704196003
32,adamstown,-25.066,-130.1015,23.48,84,100,3.49,PN,1704195907
33,yuma,32.7253,-114.6244,8.43,87,0,0.0,US,1704196003
34,luanda,-8.8368,13.2343,31.0,69,75,3.6,AO,1704195822
35,thompson,55.7435,-97.8558,-11.91,92,100,1.54,CA,1704196003
36,queenstown,-31.8976,26.8753,30.45,32,39,2.77,ZA,1704195915
37,mhamid,29.82,-5.72,19.81,20,0,4.03,MA,1704196004
38,margaret river,-33.95,115.0667,18.5,75,8,7.36,AU,1704196004
39,mbaiki,3.8678,17.9892,37.11,15,54,2.21,CF,1704196004
40,kailua-kona,19.6406,-155.9956,24.22,76,100,1.34,US,1704196004
41,bilibino,68.0546,166.4372,-25.45,99,100,0.17,RU,1704196004
42,slobozhans'ke,49.597,36.5262,5.86,74,100,8.33,UA,1704196005
43,udachny,66.4167,112.4,-40.31,72,100,2.14,RU,1704195996
44,ust-nera,64.5667,143.2,-42.03,98,79,1.88,RU,1704196005
45,ciudad de huajuapan de leon,17.8,-97.7667,12.06,87,6,2.17,MX,1704196005
46,yellowknife,62.456,-114.3525,-21.99,94,20,3.6,CA,1704195909
47,blackmans bay,-43.0167,147.3167,17.63,79,99,0.45,AU,1704196005
48,broken hill,-31.95,141.4333,24.65,60,45,6.71,AU,1704196006
49,ribas do rio pardo,-20.4431,-53.7592,27.34,63,100,2.33,BR,1704196006
50,ancud,-41.8697,-73.8203,14.26,78,20,0.51,CL,1704196006
51,kodinsk,58.6881,99.1844,-17.53,96,100,3.05,RU,1704196006
52,coquimbo,-29.9533,-71.3436,15.85,88,100,1.54,CL,1704196006
53,nova sintra,14.8667,-24.7167,22.05,65,100,7.74,CV,1704196006
54,kodiak,57.79,-152.4072,3.73,100,100,11.83,US,1704195723
55,vatutine,49.015,31.0621,4.39,84,100,6.14,UA,1704196007
56,amga,60.8953,131.9608,-29.71,100,98,0.45,RU,1704196007
57,ulysses,37.5814,-101.3552,-0.47,93,0,3.09,US,1704196007
58,inhambane,-23.865,35.3833,30.0,74,75,11.83,MZ,1704196007
59,ribeira grande,38.5167,-28.7,16.54,63,20,6.17,PT,1704196007
60,richards bay,-28.783,32.0377,25.11,60,92,3.57,ZA,1704195715
61,kerikeri,-35.2268,173.9474,12.25,86,60,2.05,NZ,1704196008
62,yangiobod,41.1192,70.0941,1.72,71,100,0.77,UZ,1704196008
63,petropavlovsk-kamchatsky,53.0452,158.6483,-15.86,77,0,7.6,RU,1704196008
64,vernon,50.2581,-119.2691,2.01,86,87,4.12,CA,1704196008
65,hawaiian paradise park,19.5933,-154.9731,21.13,94,75,3.6,US,1704196008
66,shar,49.5886,81.0453,-1.39,72,84,12.16,KZ,1704196008
67,sake,-1.5736,29.045,21.34,84,92,0.95,CD,1704196008
68,salahonda,2.1019,-78.7217,25.89,87,67,4.37,CO,1704196009
69,uturoa,-16.7333,-151.4333,26.68,80,100,3.53,PF,1704196009
70,road town,18.4167,-64.6167,25.02,69,20,3.09,VG,1704196009
71,lebu,-37.6167,-73.65,14.81,81,2,5.69,CL,1704195999
72,macapa,0.0389,-51.0664,27.99,89,75,1.54,BR,1704196009
73,college,64.8569,-147.8028,-18.08,79,0,2.57,US,1704195871
74,constantia,44.1833,28.65,6.5,90,100,5.5,RO,1704196009
75,choyr,46.3611,108.3611,-18.35,86,3,0.47,MN,1704196010
76,chonchi,-42.6128,-73.8092,13.4,76,63,1.13,CL,1704196010
77,aldinga beach,-35.2793,138.4604,21.9,88,82,4.45,AU,1704196010
78,longyearbyen,78.2186,15.6401,-8.09,62,75,7.72,SJ,1704196010
79,happy valley-goose bay,53.3168,-60.3315,-9.83,79,100,3.6,CA,1704196010
80,island harbour,50.724,-1.2758,13.42,94,100,7.6,GB,1704196010
81,vorgashor,67.5833,63.95,-34.41,100,56,1.9,RU,1704196010
82,anadyr,64.75,177.4833,-11.72,85,0,2.0,RU,1704196011
83,tromso,69.6496,18.957,-8.99,67,0,5.14,NO,1704196011
84,kalmunai,7.4167,81.8167,25.94,84,100,4.69,LK,1704196011
85,westport,41.1415,-73.3579,-0.93,71,0,2.06,US,1704195958
86,beaufort west,-32.3567,22.583,31.08,22,0,5.21,ZA,1704196011
87,port mathurin,-19.6833,63.4167,28.08,77,95,5.0,MU,1704196011
88,la ronge,55.1001,-105.2842,-7.86,79,100,3.6,CA,1704196011
89,mosjoen,65.836,13.1908,-5.88,56,0,2.06,NO,1704196012
90,bonthe,7.5264,-12.505,32.52,46,35,1.12,SL,1704196012
91,west island,-12.1568,96.8225,27.99,78,100,6.17,CC,1704196012
92,stanley,54.868,-1.6985,7.93,93,98,2.24,GB,1704196012
93,geraldton,-28.7667,114.6,24.23,69,1,8.75,AU,1704196012
94,trairi,-3.2778,-39.2689,28.86,69,60,3.16,BR,1704195985
95,el granada,37.5027,-122.4694,12.54,92,0,1.54,US,1704195788
96,suva,-18.1416,178.4415,24.71,100,75,0.0,FJ,1704196013
97,sao tome,0.3365,6.7273,32.02,70,75,8.23,ST,1704196013
98,lompoc,34.6391,-120.4579,8.1,97,0,3.6,US,1704196013
99,bontang,0.1333,117.5,27.65,82,100,3.18,ID,1704196013
100,coyhaique,-45.5752,-72.0662,16.34,72,0,2.57,CL,1704196009
101,breves,-1.6822,-50.4803,26.63,83,91,1.78,BR,1704196013
102,howrah,22.5892,88.3103,19.0,59,0,3.6,IN,1704195930
103,al burayqah,30.4062,19.5739,19.44,42,84,3.65,LY,1704196014
104,montmagny,48.9734,2.3469,11.64,92,100,11.83,FR,1704195943
105,vila franca do campo,37.7167,-25.4333,18.27,99,100,3.61,PT,1704196014
106,tamanrasset,22.785,5.5228,20.95,13,0,4.12,DZ,1704196014
107,saipan,15.1355,145.701,27.39,83,20,4.63,MP,1704196014
108,konongo,6.6167,-1.2167,37.41,24,45,1.21,GH,1704196014
109,papatowai,-46.5619,169.4708,10.77,92,95,1.53,NZ,1704196014
110,tommot,58.9564,126.2925,-14.9,98,100,1.07,RU,1704196015
111,wanning,18.8003,110.3967,22.09,85,37,2.72,CN,1704196015
112,ushuaia,-54.8,-68.3,9.81,100,40,3.09,AR,1704195784
113,haiku-pauwela,20.9219,-156.3051,22.25,73,40,5.81,US,1704196015
114,nova vicosa,-17.8919,-39.3719,26.87,77,96,3.61,BR,1704196015
115,sao luiz gonzaga,-28.4083,-54.9608,24.89,76,12,0.98,BR,1704195987
116,iskateley,67.6803,53.1512,-22.12,99,96,4.03,RU,1704196016
117,naze,28.3667,129.4833,12.51,61,55,1.13,JP,1704196016
118,ola,59.5833,151.2833,-26.58,91,35,2.84,RU,1704196016
119,ferkessedougou,9.6,-5.2,34.97,8,20,2.66,CI,1704196016
120,hagere maryam,5.6333,38.2333,23.16,42,71,0.87,ET,1704196016
121,laguna,38.421,-121.4238,8.05,92,0,2.57,US,1704196016
122,avarua,-21.2078,-159.775,25.03,83,20,3.09,CK,1704196016
123,wailua homesteads,22.0669,-159.378,21.53,90,75,3.09,US,1704196017
124,whitehorse,60.7161,-135.0538,-14.57,92,100,1.03,CA,1704196017
125,glogowek,50.3536,17.8641,5.29,75,100,6.49,PL,1704196017
126,rongelap,11.1635,166.8941,27.31,73,29,9.97,MH,1704196017
127,alesund,62.4723,6.1549,3.51,56,0,9.26,NO,1704195880
128,ciudad acuna,29.3232,-100.9522,9.16,78,100,3.6,MX,1704196017
129,kapa'a,22.0752,-159.319,22.28,90,75,3.09,US,1704196018
130,lijiang,26.8688,100.2207,3.86,54,76,1.27,CN,1704196018
131,edinburgh of the seven seas,-37.0676,-12.3116,16.7,76,100,1.21,SH,1704196018
132,christchurch,-43.5333,172.6333,17.17,83,75,2.06,NZ,1704195769
133,zhangatas,43.5667,69.75,-0.19,79,32,3.21,KZ,1704196018
134,utrik,11.2278,169.8474,27.26,75,60,10.96,MH,1704196018
135,al muwayh,22.4333,41.7583,25.5,27,0,4.81,SA,1704196018
136,labrador city,52.9463,-66.9114,-10.05,79,100,5.66,CA,1704196019
137,marka,1.7159,44.7717,30.03,61,51,7.92,SO,1704196019
138,goure,13.9835,10.2704,30.04,9,65,5.12,NE,1704196019
139,touros,-5.1989,-35.4608,29.25,65,55,3.38,BR,1704196019
140,tenno,39.9,139.9667,4.56,75,100,8.04,JP,1704196019
141,codrington,-38.2667,141.9667,18.44,91,40,3.8,AU,1704196019
142,tiksi,71.6872,128.8694,-32.69,100,100,1.65,RU,1704196020
143,talnakh,69.4865,88.3972,-31.0,89,38,1.11,RU,1704196020
144,asau,46.4333,26.4,8.51,56,100,5.48,RO,1704196020
145,puerto ayora,-0.7393,-90.3518,24.22,91,3,2.79,EC,1704196020
146,phan thiet,10.9333,108.1,25.49,81,44,4.86,VN,1704196020
147,targuist,34.9377,-4.3186,15.48,35,80,0.73,MA,1704196020
148,nouadhibou,20.931,-17.0347,20.99,32,0,4.63,MR,1704196021
149,grand-bassam,5.2118,-3.7388,30.98,56,88,3.4,CI,1704196021
150,cole harbour,44.6724,-63.4751,-4.29,81,24,1.79,CA,1704196021
151,hotan,37.0997,79.9269,0.32,40,7,1.4,CN,1704196021
152,lagos,6.5833,3.75,31.18,25,32,1.23,NG,1704195456
153,ilhabela,-23.7781,-45.3581,25.1,79,95,3.01,BR,1704196021
154,bratsk,56.1325,101.6142,-12.73,96,100,2.36,RU,1704195946
155,kluang,2.0251,103.3328,25.01,90,99,2.9,MY,1704195751
156,sao gabriel da cachoeira,-0.1303,-67.0892,24.07,98,100,0.64,BR,1704196022
157,sergeyevka,53.88,67.4158,-20.6,93,100,5.78,KZ,1704196022
158,tazacorte,28.629,-17.9293,22.54,86,20,2.06,ES,1704196022
159,paris,48.8534,2.3488,11.43,92,100,10.29,FR,1704195155
160,yerofey pavlovich,53.9667,121.9667,-22.29,100,99,0.69,RU,1704196023
161,hadibu,12.65,54.0333,25.68,63,83,6.16,YE,1704196023
162,antsiranana,-12.2787,49.2917,33.42,52,20,7.2,MG,1704196023
163,ginir,7.1333,40.7,24.81,28,85,4.1,ET,1704196023
164,tchintabaraden,15.8969,5.7985,29.61,8,80,6.39,NE,1704196024
165,bryne,58.7354,5.6477,1.1,58,0,13.89,NO,1704196024
166,qarauyl,48.9451,79.255,-2.74,69,19,13.02,KZ,1704196024
167,mana,5.6592,-53.7767,27.94,69,77,4.84,GF,1704196024
168,cockburn town,21.4612,-71.1419,24.99,78,26,6.27,TC,1704195889
169,saint-pierre,-21.3393,55.4781,26.82,89,75,3.6,RE,1704196025
170,la passe,45.5549,-0.8967,11.13,68,100,11.11,FR,1704196025
171,hinton,53.4001,-117.5857,-4.94,84,63,2.06,CA,1704196025
172,sterling,39.0062,-77.4286,2.16,71,20,4.12,US,1704195926
173,camana,-16.6228,-72.7111,21.02,85,86,2.43,PE,1704196026
174,ixtapa,20.7,-105.2,20.13,82,100,1.45,MX,1704196026
175,fortuna,40.5982,-124.1573,12.19,84,100,9.77,US,1704196027
176,ha'il,27.5219,41.6907,15.01,88,1,6.17,SA,1704196027
177,follonica,42.9263,10.7616,15.84,74,99,3.13,IT,1704196027
178,flying fish cove,-10.4217,105.6791,26.82,89,100,4.12,CX,1704195955
179,puerto aysen,-45.4,-72.7,16.79,79,100,1.45,CL,1704196028
180,kingston,17.997,-76.7936,24.53,88,40,2.06,JM,1704195981
181,berdyansk,46.7503,36.7944,7.35,76,100,4.77,UA,1704196028
182,hamilton,39.1834,-84.5333,1.69,78,100,5.66,US,1704195968
183,buka,40.8108,69.1986,7.5,51,100,1.7,UZ,1704196028
184,candido mendes,-1.4467,-45.7167,24.27,97,100,0.24,BR,1704196029
185,georgetown,5.4112,100.3354,30.97,67,20,2.06,MY,1704195911
186,mocimboa,-11.3167,40.35,30.41,64,100,4.72,MZ,1704196029
187,kone,-21.0595,164.8658,25.91,76,37,2.61,NC,1704196030
188,frontera,26.9333,-101.45,11.29,80,70,0.45,MX,1704196030
189,mount isa,-20.7333,139.5,33.87,36,84,3.6,AU,1704196030
190,valle del guamuez,0.4525,-76.9192,22.37,93,100,0.7,CO,1704196031
191,mirny,62.5353,113.9611,-25.69,100,99,0.35,RU,1704196031
192,galliano,29.4422,-90.2992,6.11,73,87,4.91,US,1704196031
193,golere,16.2557,-14.1017,31.64,9,100,4.94,SN,1704196031
194,kattivakkam,13.2167,80.3167,28.05,67,75,5.28,IN,1704196032
195,dibba al-hisn,25.6196,56.2729,27.1,48,1,4.44,AE,1704196032
196,moundou,8.5667,16.0833,35.13,11,0,4.12,TD,1704196032
197,huilong,31.8111,121.655,6.38,69,100,3.72,CN,1704196032
198,saldanha,-33.0117,17.9442,33.03,57,34,5.16,ZA,1704196033
199,suoyarvi,62.0833,32.35,-23.54,100,89,1.69,RU,1704196033
200,chibougamau,49.9168,-74.3659,-7.21,86,100,4.63,CA,1704196033
201,plettenberg bay,-34.0527,23.3716,23.1,73,11,5.23,ZA,1704196033
202,tottori,35.5,134.2333,9.04,66,75,2.57,JP,1704196034
203,al kharj,24.155,47.3346,23.32,37,0,3.06,SA,1704196034
204,ashland,40.8167,-82.2665,-0.02,94,9,4.64,US,1704195809
205,belmonte,-15.8631,-38.8828,28.61,65,77,4.17,BR,1704196034
206,carnarvon,-24.8667,113.6333,23.56,71,0,11.38,AU,1704196035
207,moose jaw,50.4001,-105.5344,-8.86,92,58,3.6,CA,1704196035
208,warmbad,-28.45,18.7333,37.49,15,21,1.8,NA,1704196035
209,novodvinsk,64.4165,40.8122,-30.68,100,7,0.12,RU,1704196035
210,mount pearl,47.5166,-52.7813,-6.69,82,100,6.17,CA,1704196035
211,arvayheer,46.2639,102.775,-14.35,67,3,2.68,MN,1704196036
212,sinabang,2.4803,96.3801,27.53,81,99,2.18,ID,1704196036
213,aasiaat,68.7098,-52.8699,-15.91,80,99,4.37,GL,1704196036
214,los andes,-32.8337,-70.5983,21.67,38,0,1.31,CL,1704195917
215,kourou,5.1552,-52.6478,29.03,74,83,3.8,GF,1704196037
216,dakhla,23.6848,-15.958,21.01,26,2,2.57,EH,1704196037
217,hithadhoo,-0.6,73.0833,28.06,74,36,1.41,MV,1704196037
218,naracoorte,-36.9579,140.7383,21.4,82,22,5.06,AU,1704196037
219,makinsk,52.6292,70.4169,-10.41,91,99,7.45,KZ,1704196038
220,gurupa,-1.405,-51.64,28.64,68,39,2.4,BR,1704196038
221,chinsali,-10.5414,32.0816,24.02,75,97,1.08,ZM,1704196038
222,tileagd,47.0667,22.2,7.75,72,30,5.97,RO,1704196038
223,al jawf,29.5,38.75,16.79,48,17,4.88,SA,1704196038
224,hancheng,32.5186,112.3522,8.41,68,39,2.68,CN,1704196038
225,kuanda,56.3161,116.0806,-21.05,98,100,0.24,RU,1704196039
226,zheleznogorsk-ilimskiy,56.5768,104.1217,-17.87,98,86,1.47,RU,1704196039
227,lincoln city,44.9582,-124.0179,8.25,88,100,3.58,US,1704196040
228,ingeniero guillermo n. juarez,-23.9,-61.85,23.3,92,100,3.05,AR,1704196040
229,copala,16.65,-98.9833,22.12,61,1,1.7,MX,1704196040
230,lichinga,-13.3128,35.2406,19.05,100,75,4.12,MZ,1704196040
231,cabedelo,-6.9811,-34.8339,27.37,68,5,3.34,BR,1704196040
232,tongliao,43.6125,122.2653,-14.77,96,48,2.07,CN,1704196041
233,remire-montjoly,4.9167,-52.2667,29.02,74,20,5.14,GF,1704196041
234,giyani,-23.3025,30.7187,28.48,47,99,5.42,ZA,1704196041
235,nuuk,64.1835,-51.7216,-0.66,37,75,1.03,GL,1704196042
236,kristiansund,63.1115,7.732,0.03,80,75,3.6,NO,1704196042
237,aguazul,5.1728,-72.5471,25.35,72,100,1.14,CO,1704196042
238,punta arenas,-53.15,-70.9167,14.01,71,75,7.2,CL,1704195805
239,maitum,6.0392,124.4986,26.14,88,100,1.79,PH,1704196042
240,tongchuanshi,35.0806,109.0897,2.81,39,0,3.1,CN,1704196043
241,taoudenni,22.6783,-3.9836,25.51,13,99,6.47,ML,1704196043
242,guerrero negro,27.9769,-114.0611,14.47,78,4,3.38,MX,1704196043
243,margate,51.3813,1.3862,12.71,93,100,6.26,GB,1704196043
244,saint-philippe,-21.3585,55.7679,26.77,78,100,2.97,RE,1704196043
245,enewetak,11.3474,162.3373,27.81,77,82,8.04,MH,1704196044
246,mcminnville,45.2101,-123.1987,6.52,76,75,0.0,US,1704196044
247,santa cruz,-17.8,-63.1667,26.03,83,75,6.69,BO,1704195903
248,griffith,41.5284,-87.4237,-1.73,86,100,4.63,US,1704196044
249,dryden,49.7833,-92.7503,-3.84,100,100,4.12,CA,1704196044
250,waynesboro,38.0685,-78.8895,1.32,68,40,2.06,US,1704196045
251,akureyri,65.6835,-18.0878,3.96,75,75,1.03,IS,1704196045
252,las navas del marques,40.6024,-4.3345,9.8,72,99,2.48,ES,1704196045
253,lihue,21.9789,-159.3672,21.87,87,75,3.09,US,1704196046
254,hermanus,-34.4187,19.2345,27.25,55,90,5.35,ZA,1704196046
255,dourados,-22.2211,-54.8056,24.8,80,93,3.13,BR,1704196046
256,okha,53.5739,142.9478,-25.88,100,96,2.02,RU,1704196046
257,ghanzi,-21.5667,21.7833,32.56,27,84,3.84,BW,1704196046
258,keflavik,64.0049,-22.5624,3.95,87,40,7.72,IS,1704196047
259,talara,-4.5772,-81.2719,22.49,81,99,5.69,PE,1704196047
260,motueka,-41.1333,173.0167,16.17,80,80,1.62,NZ,1704196047
261,pechora,65.1472,57.2244,-36.75,100,39,0.45,RU,1704196047
262,meadow lake,34.8014,-106.5436,2.44,68,97,0.95,US,1704196047
263,ailuk,10.2197,169.9797,27.1,78,71,10.72,MH,1704196048
264,bile,48.4952,39.0505,8.36,74,100,6.98,UA,1704196048
265,ilulissat,69.2167,-51.1,-8.99,41,40,7.72,GL,1704195846
266,fada,9.5667,8.3,35.38,13,93,0.15,NG,1704196048
267,fort bragg,35.139,-79.006,1.75,79,0,2.57,US,1704196048
268,itoman,26.1247,127.6694,19.01,52,20,3.09,JP,1704196049
269,talwandi bhai,30.85,74.9333,15.16,26,0,2.13,IN,1704196049
270,nola,40.922,14.5329,16.46,84,50,2.64,IT,1704196049
271,klaksvik,62.2266,-6.589,5.51,89,95,14.17,FO,1704196049
272,cabo san lucas,22.8909,-109.9124,16.45,78,90,4.09,MX,1704195366
273,karaton,-6.3424,106.1045,26.27,89,98,0.63,ID,1704196050
274,bardai,11.65,7.2333,30.83,10,89,4.94,NG,1704196050
275,kosum phisai,16.2486,103.0674,29.23,47,49,1.78,TH,1704196051
276,pimentel,-6.8367,-79.9342,21.16,88,0,4.63,PE,1704196051
277,charata,-27.2144,-61.188,24.41,81,1,3.29,AR,1704196051
278,opladen,51.0667,7.0167,12.04,82,100,6.24,DE,1704196051
279,khandyga,62.6667,135.6,-35.66,96,96,0.95,RU,1704196051
280,bikenibeu village,1.3673,173.1241,28.98,89,75,2.06,KI,1704196052
281,fale old settlement,-9.3852,-171.2468,28.93,76,92,4.93,TK,1704196052
282,dubbo,-32.25,148.6167,21.07,88,75,5.14,AU,1704196052
283,murzuq,25.9155,13.9184,20.54,25,35,4.08,LY,1704196052
284,luderitz,-26.6481,15.1594,23.06,64,26,5.1,NA,1704196053
285,terbanggi besar,-4.8667,105.2333,27.16,83,99,0.61,ID,1704196053
286,pauini,-7.7136,-66.9764,25.79,85,91,0.94,BR,1704196053
287,mount gambier,-37.8333,140.7667,16.24,98,31,2.29,AU,1704195893
288,emerald,-23.5333,148.1667,25.75,67,12,5.04,AU,1704196054
289,muisne,0.6,-80.0333,24.96,91,100,4.47,EC,1704196054
290,usinsk,65.9939,57.5281,-31.07,99,42,2.24,RU,1704196054
291,plastun,44.7561,136.2939,-9.7,72,19,2.27,RU,1704196055
292,tadine,-21.55,167.8833,25.35,79,100,5.52,NC,1704196055
293,beau vallon,-20.4189,57.6953,28.13,83,75,1.54,MU,1704195842
294,prineville,44.2999,-120.8345,0.27,96,100,0.0,US,1704196055
295,parkway,38.496,-121.4588,8.06,93,0,2.57,US,1704196055
296,lisala,2.15,21.5167,37.2,21,81,1.48,CD,1704196055
297,batibo,5.8358,9.8553,31.43,23,78,1.92,CM,1704196056
298,daru,-9.0763,143.2092,27.84,83,51,4.3,PG,1704196056
299,alice springs,-23.7,133.8833,32.75,13,73,4.12,AU,1704195917
300,san agustin de valle fertil,-30.6335,-67.4682,23.33,64,22,2.66,AR,1704196056
301,ndioum,16.5129,-14.6471,31.02,9,100,4.42,SN,1704196057
302,pershore,52.1116,-2.0759,13.59,95,100,7.01,GB,1704196057
303,kushtagi,15.7667,76.2,27.24,31,6,3.9,IN,1704196057
304,xilin hot,43.9667,116.0333,-18.11,94,40,2.43,CN,1704196057
305,nueva esperanza,15.2667,-87.6,20.79,99,100,0.61,HN,1704196057
306,san sebastian de la gomera,28.0916,-17.1133,24.65,73,0,2.06,ES,1704196058
307,bamboo flat,11.7,92.7167,28.05,74,40,4.12,IN,1704196058
308,saint-joseph,-21.3667,55.6167,26.21,76,100,2.34,RE,1704196058
309,polyarnyy,69.1989,33.4478,-16.15,89,100,10.12,RU,1704196058
310,tsiombe,-25.3,45.4833,24.39,89,90,8.66,MG,1704196059
311,bahia blanca,-38.7196,-62.2724,23.88,47,62,1.12,AR,1704196059
312,tobelo,1.7284,128.0095,27.42,82,64,1.38,ID,1704196059
313,toamasina,-18.1667,49.3833,32.0,70,20,6.17,MG,1704195855
314,vorkuta,67.5,64.0,-34.49,100,39,1.79,RU,1704196059
315,ulsteinvik,62.3432,5.8487,3.5,65,93,5.23,NO,1704196060
316,kolonia town,6.964,158.206,29.0,79,40,1.54,FM,1704196060
317,kayangel,8.0823,134.7173,28.83,68,9,2.64,PW,1704196060
318,bulgan,48.8125,103.5347,-16.14,79,6,1.85,MN,1704196060
319,port douglas,-16.4833,145.4667,27.35,82,55,0.89,AU,1704196060
320,arteche,12.2645,125.4048,25.39,81,37,2.15,PH,1704196061
321,urbano santos,-3.2078,-43.4036,25.62,91,99,1.06,BR,1704196061
322,mili,6.0815,171.735,28.18,78,48,9.02,MH,1704196061
323,sao joao da barra,-21.6403,-41.0511,24.05,86,100,1.48,BR,1704196061
324,constitucion,-35.3333,-72.4167,17.54,75,6,0.5,CL,1704196062
325,zeya,53.75,127.2667,-26.95,99,88,1.1,RU,1704196062
326,quellon,-43.1167,-73.6167,14.5,87,75,1.32,CL,1704196062
327,hasaki,35.7333,140.8333,6.27,82,88,5.35,JP,1704196062
328,khovd,48.0056,91.6419,-12.02,70,64,1.01,MN,1704196062
329,atafu village,-8.5421,-172.5159,28.75,75,100,2.91,TK,1704196063
330,luganville,-15.5333,167.1667,27.18,88,55,3.33,VU,1704196063
331,olyokminsk,60.3736,120.4264,-20.2,99,100,1.87,RU,1704196063
332,brookings,44.3114,-96.7984,-2.73,90,100,4.12,US,1704196063
333,tazovsky,67.4667,78.7,-33.71,96,8,3.33,RU,1704196064
334,austin,30.2672,-97.7431,7.85,75,100,3.58,US,1704195679
335,midvagur,62.0511,-7.1939,5.46,87,75,14.4,FO,1704196064
336,naryshkino,52.9678,35.7268,-9.9,94,100,7.68,RU,1704196064
337,katsuura,35.1333,140.3,12.44,78,70,4.95,JP,1704196064
338,sarangani,5.4033,125.4636,28.39,79,100,6.66,PH,1704196065
339,vysokiy,58.35,60.05,-29.9,100,92,1.77,RU,1704196065
340,fort mcmurray,56.7268,-111.381,-10.23,85,100,2.57,CA,1704195957
341,callao,-12.0667,-77.15,23.18,83,100,5.66,PE,1704196065
342,labuan,5.2767,115.2417,27.2,88,20,0.0,MY,1704196065
343,vylkove,45.4021,29.586,8.8,59,100,3.8,UA,1704196065
344,port lincoln,-34.7333,135.8667,16.91,88,98,7.87,AU,1704196066
345,panacan,9.2463,118.4082,26.9,83,66,2.28,PH,1704196066
346,sur,22.5667,59.5289,25.29,59,8,4.99,OM,1704196066
347,northam,51.0333,-4.2167,12.99,97,100,17.62,GB,1704196066
348,baranovichi,53.1327,26.0139,-5.36,70,100,3.14,BY,1704196066
349,wynyard,-41.0,145.7167,17.2,89,80,2.48,AU,1704196067
350,las khorey,11.1595,48.1967,26.59,55,46,6.02,SO,1704196067
351,bereznehuvate,47.3078,32.8499,8.12,59,100,5.61,UA,1704196067
352,nadym,65.5333,72.5167,-29.82,94,6,4.75,RU,1704196067
353,qaqortoq,60.7167,-46.0333,-6.43,78,100,1.96,GL,1704196067
354,saint-denis,48.9167,2.3333,11.71,92,100,11.83,FR,1704196067
355,andratx,39.5755,2.4202,17.47,55,71,7.23,ES,1704196068
356,corinth,37.9407,22.9573,17.72,64,100,3.51,GR,1704196068
357,robore,-18.3333,-59.75,27.87,72,56,3.03,BO,1704196068
358,bull savanna,17.8868,-77.5902,22.61,86,3,2.14,JM,1704196068
359,yulinshi,38.2906,109.7494,-7.06,82,1,2.43,CN,1704196068
360,kruisfontein,-34.0033,24.7314,28.27,58,34,7.35,ZA,1704196068
361,dogondoutchi,13.6393,4.0287,31.96,9,57,5.53,NE,1704196069
362,jeremie,18.65,-74.1167,24.49,81,2,1.45,HT,1704196069
363,gizo,-8.103,156.8419,29.11,74,40,1.22,SB,1704196069
364,pangody,65.85,74.4859,-31.05,94,6,4.72,RU,1704196069
365,bodden town,19.2833,-81.25,25.0,65,75,5.66,KY,1704196069
366,arraial do cabo,-22.9661,-42.0278,22.92,83,100,0.51,BR,1704196069
367,patacamaya,-17.2333,-67.9167,10.68,72,95,2.04,BO,1704196070
368,kudat,6.8837,116.8477,29.05,84,58,2.24,MY,1704196070
369,derbent,42.0678,48.2899,10.92,68,22,1.32,RU,1704196070
370,santana,-0.0583,-51.1817,28.1,89,75,1.54,BR,1704196070
371,iguape,-24.7081,-47.5553,24.75,76,99,0.34,BR,1704196070
372,la'ie,21.6477,-157.9253,23.58,75,0,3.13,US,1704196070
373,bugiri,0.5714,33.7417,27.12,58,32,1.59,UG,1704196070
374,yuzhno-kurilsk,44.0306,145.8556,1.32,73,100,3.01,RU,1704196071
375,east london,-33.0153,27.9116,22.52,78,75,8.75,ZA,1704196005
376,dankalwa,11.7443,12.1867,32.65,11,99,4.41,NG,1704196071
377,itamaraca,-7.7478,-34.8256,28.03,68,6,2.79,BR,1704196071
378,fomeque,4.488,-73.8975,15.42,88,97,0.31,CO,1704196071
379,sinazongwe,-17.2614,27.4618,30.62,58,97,5.5,ZM,1704196071
380,sisimiut,66.9395,-53.6735,-5.53,72,100,4.77,GL,1704196071
381,sanghar,26.0466,68.9481,23.75,16,0,2.3,PK,1704196071
382,maragogi,-9.0122,-35.2225,28.71,68,11,3.04,BR,1704195857
383,nantucket,41.2835,-70.0995,-1.94,86,40,3.09,US,1704196072
384,yibin,28.7667,104.6238,12.44,71,96,1.05,CN,1704196072
385,makurazaki,31.2667,130.3167,11.83,69,1,2.18,JP,1704196072
386,st. john's,47.5649,-52.7093,-6.23,82,100,6.17,CA,1704196072
387,shimoda,34.6667,138.95,8.39,66,22,6.58,JP,1704196072
388,kralendijk,12.15,-68.2667,23.99,88,84,2.06,BQ,1704196072
389,revda,56.801,59.9303,-24.62,97,71,1.3,RU,1704196073
390,wellington,-41.2866,174.7756,17.26,78,75,5.66,NZ,1704195901
391,veraval,20.9,70.3667,26.27,44,0,5.18,IN,1704196073
392,tafuna,-14.3358,-170.72,27.97,100,40,3.09,AS,1704196073
393,beterou,9.1992,2.2586,36.04,11,48,2.25,BJ,1704196073
394,lata,40.1629,-8.3327,15.6,83,100,4.08,PT,1704196073
395,cidreira,-30.1811,-50.2056,23.72,81,70,5.65,BR,1704196073
396,chincha alta,-13.4099,-76.1323,20.33,83,100,0.55,PE,1704196074
397,ujae,8.9322,165.7642,28.09,78,48,9.15,MH,1704196074
398,portland,45.5234,-122.6762,7.25,81,75,5.81,US,1704195812
399,suntar,62.1444,117.6319,-21.67,100,100,1.13,RU,1704196074
400,toro,4.6117,-76.0814,22.38,96,93,0.48,CO,1704196074
401,pala,9.3642,14.9046,35.12,10,40,3.09,TD,1704196074
402,north lakhimpur,27.2333,94.1167,21.05,68,20,0.0,IN,1704195908
403,george town,5.4112,100.3354,30.97,67,20,2.06,MY,1704196074
404,kabwe,-14.4469,28.4464,24.37,76,97,3.35,ZM,1704195913
405,freetown,8.484,-13.2299,29.75,56,23,3.5,SL,1704196075
406,rakops,-21.0167,24.3333,34.35,28,30,4.71,BW,1704196075
407,kangaba,11.9333,-8.4167,33.22,9,94,3.39,ML,1704196075
408,masina,-4.3836,15.3914,28.19,74,40,2.06,CD,1704196075
409,seguin,29.5688,-97.9647,8.89,74,100,4.12,US,1704196033
410,nemuro,43.3236,145.575,3.19,83,100,8.36,JP,1704196006
411,kwang binh,17.4833,106.6,22.32,93,77,3.35,VN,1704196076
412,knyaze-volkonskoye,48.4642,135.4567,-19.81,99,74,2.25,RU,1704196076
413,peniche,39.3558,-9.3811,19.05,89,81,9.58,PT,1704196076
414,tarawa,1.419,172.984,29.05,89,75,2.06,KI,1704196076
415,khemisset,33.6667,-6.25,21.81,26,62,2.4,MA,1704196076
416,darwin,-12.4611,130.8418,29.99,72,75,1.54,AU,1704195904
417,south valley,35.0101,-106.6781,3.5,56,75,4.63,US,1704196076
418,porto novo,6.4965,2.6036,30.9,38,25,2.69,BJ,1704196076
419,vadso,70.0744,29.7487,-13.91,72,40,7.2,NO,1704196077
420,sao jose da coroa grande,-8.8978,-35.1478,28.53,69,16,3.0,BR,1704196077
421,sabang,5.8933,95.3214,27.8,77,88,6.93,ID,1704196077
422,sodankyla,67.4167,26.6,-33.08,100,99,1.58,FI,1704196077
423,beolgyo,34.8449,127.3429,5.3,78,87,2.34,KR,1704196077
424,hafnarfjordur,64.0671,-21.9377,3.93,81,20,4.63,IS,1704196077
425,vanimo,-2.6741,141.3028,26.92,85,88,1.54,PG,1704196077
426,naqadeh,36.9553,45.388,10.47,31,81,1.04,IR,1704196078
427,susuman,62.7833,148.1667,-31.12,98,100,0.45,RU,1704196078
428,bazarak,35.3129,69.5152,5.31,27,93,1.36,AF,1704196078
429,ayabaca,-4.6398,-79.7149,9.66,89,94,0.2,PE,1704196078
430,zaragoza,41.6561,-0.8773,13.05,65,20,3.6,ES,1704196023
431,el calafate,-50.3408,-72.2768,13.59,76,68,2.23,AR,1704196078
432,yinzhu,35.8786,119.9753,2.38,66,97,1.79,CN,1704196078
433,kaa-khem,51.6833,94.7333,-17.0,90,100,1.07,RU,1704196079
434,furtwangen,48.05,8.2,6.92,94,100,8.27,DE,1704196079
435,punta de bombon,-17.1717,-71.7931,20.58,84,100,1.74,PE,1704196079
436,reggane,26.7158,0.1714,23.82,14,2,4.99,DZ,1704196079
437,aykhal,66.0,111.5,-32.69,99,99,1.92,RU,1704196079
438,conde,-7.2597,-34.9075,26.7,78,20,0.0,BR,1704196079
439,cohoes,42.7742,-73.7001,-0.21,79,100,1.54,US,1704196079
440,isangel,-19.55,169.2667,26.37,83,79,6.71,VU,1704196080
441,micheweni,-4.9667,39.8333,29.69,69,18,4.97,TZ,1704196080
442,hilo,19.7297,-155.09,21.25,92,75,3.6,US,1704196023
443,gantang,26.92,119.6333,10.85,81,22,0.54,CN,1704196080
444,faya-largeau,17.9257,19.1043,27.94,11,0,7.2,TD,1704196080
445,santo antonio,-6.3106,-35.4789,28.82,62,25,2.28,BR,1704196080
446,amos,48.5669,-78.1162,-5.48,80,100,4.42,CA,1704195893
447,greater sudbury,46.49,-80.99,-1.46,86,54,4.47,CA,1704195792
448,gilgit,35.9221,74.3087,4.22,39,68,0.84,PK,1704196081
449,neryungri,56.6709,124.6491,-22.04,97,99,0.61,RU,1704196081
450,arroyo,41.6096,-4.7969,9.56,75,75,6.69,ES,1704196081
451,tura,25.5198,90.2201,15.35,69,1,1.33,IN,1704196081
452,magadan,59.5667,150.8,-25.96,82,57,2.2,RU,1704196081
453,ebaye,8.7748,167.7392,28.01,78,40,8.23,MH,1704196082
454,zardob,40.2183,47.7083,12.5,47,46,2.7,AZ,1704196082
455,buala,-8.145,159.5921,27.77,83,43,0.58,SB,1704196082
456,ratnagiri,16.9833,73.3,27.52,59,0,5.31,IN,1704196082
457,kangding,30.0513,101.9603,1.15,92,94,2.2,CN,1704196082
458,bereeda,11.8704,51.0579,25.82,62,100,5.72,SO,1704196082
459,timimoun,29.2639,0.231,19.21,30,0,8.23,DZ,1704196082
460,egilsstadir,65.2653,-14.3948,4.95,75,75,2.06,IS,1704196083
461,trinidad,-14.8333,-64.9,24.99,94,75,3.6,BO,1704196083
462,kyaukse,21.6,96.1333,25.0,61,20,0.0,MM,1704196083
463,horta,38.5333,-28.6333,16.12,73,20,6.17,PT,1704196083
464,dzhalagash,45.0833,64.6667,2.88,62,8,3.48,KZ,1704196083
465,juneau,58.3019,-134.4197,0.0,97,100,0.0,US,1704195905
466,villa regina,-39.1,-67.0667,23.32,22,88,2.68,AR,1704196084
467,khujner,23.7833,76.6,24.21,41,1,1.2,IN,1704196084
468,dabeiba,7.0017,-76.2672,23.89,98,96,0.47,CO,1704196084
469,emure-ekiti,7.4361,5.4593,35.87,22,69,1.54,NG,1704196084
470,wad medani,14.4012,33.5199,31.51,15,51,5.02,SD,1704196084
471,zouerate,22.7187,-12.4521,24.35,13,100,5.82,MR,1704196084
472,bayanhongor,46.7167,100.1167,-21.15,71,6,1.84,MN,1704196084
473,frutigen,46.5878,7.6475,7.27,78,100,2.77,CH,1704195790
474,pariaman,-0.619,100.12,26.03,88,96,1.04,ID,1704196085
475,undurkhaan,47.3194,110.6556,-20.17,89,3,2.22,MN,1704196085
476,soio,-6.1349,12.3689,28.16,73,100,4.03,AO,1704196085
477,hirara,24.8,125.2833,18.92,77,75,2.57,JP,1704196085
478,lauro de freitas,-12.8944,-38.3272,28.01,74,40,3.6,BR,1704196085
479,portage la prairie,49.9728,-98.2926,-1.17,60,100,4.75,CA,1704196085
480,havre,49.5833,0.3333,12.41,94,75,9.77,FR,1704196086
481,zavetnoye,47.1194,43.8903,6.09,77,99,5.9,RU,1704196086
482,jinghong,21.991,100.7341,18.2,59,3,1.55,CN,1704196086
483,as sulayyil,20.4607,45.5779,27.14,26,0,5.71,SA,1704196086
484,huayucachi,-12.1333,-75.2333,12.38,85,97,0.48,PE,1704196086
485,jayapura,-2.5333,140.7,26.66,84,77,1.59,ID,1704196086
486,holualoa,19.6228,-155.9522,22.15,72,100,0.0,US,1704195927
487,opuwo,-18.0607,13.84,33.37,14,20,3.59,NA,1704196087
488,kidal,18.4411,1.4078,28.83,8,52,2.86,ML,1704196087
489,khilok,51.3674,110.4676,-13.21,82,46,2.24,RU,1704196087
490,mushie,-3.0167,16.9,28.13,70,100,0.25,CD,1704196087
491,yatou,37.15,122.3833,-0.41,80,94,1.0,CN,1704196087
492,mejit,10.2753,170.8646,27.24,75,54,10.29,MH,1704196087
493,nyala,12.05,24.8833,29.78,9,10,7.01,SD,1704196087
494,oneonta,42.4529,-75.0638,-2.19,84,49,1.62,US,1704196088
495,page,36.9147,-111.4558,-1.12,70,0,2.06,US,1704195849
496,annaba,36.9,7.7667,16.98,59,20,5.66,DZ,1704196088
497,hami,42.8,93.45,-5.36,75,12,1.76,CN,1704195968
498,prince george,53.9166,-122.753,-4.1,93,100,1.54,CA,1704195874
499,severnoye,56.3491,78.3619,-3.32,96,99,3.86,RU,1704196088
500,nar'yan-mar,67.6713,53.087,-21.97,99,95,4.04,RU,1704196088
501,fort st. john,56.2499,-120.8529,-11.06,92,100,2.57,CA,1704196088
502,mwene-ditu,-7.0,23.45,24.23,83,91,1.53,CD,1704196089
503,myitkyina,25.3833,97.4,16.84,66,0,0.45,MM,1704196089
504,mumford,5.2618,-0.759,30.05,62,38,4.38,GH,1704196089
505,usogorsk,63.4106,48.6872,-33.52,99,29,0.91,RU,1704196089
506,newman,37.3138,-121.0208,8.13,94,54,0.45,US,1704196089
507,boundiali,9.5217,-6.4869,34.31,9,7,2.19,CI,1704196089
508,abadan,30.3392,48.3043,20.97,35,0,6.17,IR,1704196089
509,dunedin,-45.8742,170.5036,12.67,91,94,1.79,NZ,1704196090
510,vilyuchinsk,52.9306,158.4028,-15.04,80,93,5.03,RU,1704196090
511,dobrich,43.5667,27.8333,6.82,95,100,4.58,BG,1704196090
512,sao miguel do araguaia,-13.275,-50.1628,23.49,89,100,2.95,BR,1704196090
513,pisco,-13.7,-76.2167,21.03,88,0,4.12,PE,1704196090
514,puerto madero,14.7208,-92.4215,23.88,70,6,1.88,MX,1704196033
515,ta`u,-14.2336,-169.5144,27.73,77,23,4.36,AS,1704196090
516,al kharijah,25.4514,30.5464,21.9,35,0,6.84,EG,1704196091
517,karkira,36.9292,6.5856,15.4,68,65,3.95,DZ,1704196091
518,acapulco de juarez,16.8634,-99.8901,21.9,73,0,2.57,MX,1704195975
519,macia,-25.0269,33.0989,27.16,61,28,6.61,MZ,1704196091
520,kununurra,-15.7667,128.7333,30.99,70,97,4.63,AU,1704196091
521,woolgoolga,-30.1106,153.2007,21.13,78,97,2.3,AU,1704196091
522,creil,49.2567,2.4848,12.19,84,100,11.31,FR,1704196091
523,ruteng,-8.6136,120.4721,19.34,95,98,0.65,ID,1704196091
524,eyl,7.9803,49.8164,27.95,54,13,11.54,SO,1704196092
525,catumbela,-12.4314,13.5472,29.33,63,58,4.37,AO,1704196092
526,ghadamis,30.1337,9.5007,16.68,29,100,3.14,LY,1704196092
527,enriquillo,17.9,-71.2333,23.68,83,9,2.38,DO,1704196092
528,brisas de zicatela,15.8369,-97.0419,23.7,64,2,1.86,MX,1704196092
529,new norfolk,-42.7826,147.0587,18.29,96,98,0.69,AU,1704196092
530,laborde,-33.1532,-62.8566,22.68,59,1,3.26,AR,1704196092
531,chhatak,25.0333,91.6667,20.36,65,1,1.2,BD,1704196093
532,laela,-8.5667,32.05,21.77,79,99,1.35,TZ,1704196093
533,waddan,29.1614,16.139,21.06,25,89,2.34,LY,1704196093
534,korkuteli,37.065,30.1957,10.81,71,99,1.61,TR,1704196093
535,morehead city,34.7229,-76.726,4.45,84,0,8.75,US,1704195952
536,sidi khaled,34.387,4.9879,17.6,36,3,5.23,DZ,1704196093
537,floro,61.5996,5.0328,2.98,48,0,13.38,NO,1704196094
538,samarinda,-0.5,117.15,24.75,96,100,0.89,ID,1704195820
539,dhari,21.3333,71.0167,26.36,28,0,3.67,IN,1704196094
540,novyy urengoy,66.0833,76.6333,-32.06,97,18,4.22,RU,1704196094
541,koundara,12.4833,-13.3,35.02,21,99,0.24,GN,1704196094
542,labytnangi,66.6572,66.4183,-31.2,99,65,1.14,RU,1704196094
543,kushikino,31.7167,130.2667,8.7,77,2,1.25,JP,1704196094
544,zhangjiajie,29.1294,110.4783,7.79,92,100,0.4,CN,1704196095
545,senanga,-16.1167,23.2667,30.88,42,86,2.54,ZM,1704196095
546,netley,50.8763,-1.354,13.91,96,75,9.77,GB,1704196095
547,altamont,42.2068,-121.7372,-1.45,96,100,0.89,US,1704196095
548,imbituba,-28.24,-48.6703,25.48,77,99,6.22,BR,1704196095
549,russkaya polyana,49.417,31.9201,3.1,69,100,8.43,UA,1704196095
550,sola,-13.8833,167.55,28.18,80,84,5.95,VU,1704196095
551,dhidhdhoo,6.8833,73.1,28.16,76,96,4.65,MV,1704196096
552,vredendal,-31.6683,18.5012,31.87,41,1,8.18,ZA,1704196096
553,mont-dore,-22.2833,166.5833,27.99,80,68,4.04,NC,1704196096
554,sougueur,35.1857,1.4961,11.07,58,0,4.63,DZ,1704196096
555,nishinoomote,30.7333,131.0,15.33,61,1,2.06,JP,1704196096
556,eirunepe,-6.6603,-69.8736,24.95,89,99,0.54,BR,1704196096
557,tocopilla,-22.092,-70.1979,21.12,70,31,3.38,CL,1704196096
